    [{"stop_id": "BN", "stop_name": "La Bonanova", "stop_coordinates": {"lon": 2.136433966, "lat": 41.39781569}, "wheelchair_boarding": 0},{"stop_id": "TT", "stop_name": "Les Tres Torres", "stop_coordinates": {"lon": 2.130811822, "lat": 41.39780042}, "wheelchair_boarding": 0},{"stop_id": "PM", "stop_name": "Pl. Molina", "stop_coordinates": {"lon": 2.146754722, "lat": 41.4016938}, "wheelchair_boarding": 0},{"stop_id": "VD", "stop_name": "Valldoreix", "stop_coordinates": {"lon": 2.06831203, "lat": 41.45784156}, "wheelchair_boarding": 0},{"stop_id": "SC", "stop_name": "Sant Cugat Centre", "stop_coordinates": {"lon": 2.078203288, "lat": 41.46791038}, "wheelchair_boarding": 0},{"stop_id": "RB", "stop_name": "Rub\u00ed Centre", "stop_coordinates": {"lon": 2.031357969, "lat": 41.48628798}, "wheelchair_boarding": 0},{"stop_id": "SQ", "stop_name": "Sant Quirze", "stop_coordinates": {"lon": 2.088722533, "lat": 41.52999155}, "wheelchair_boarding": 0},{"stop_id": "EN", "stop_name": "Terrassa  Estaci\u00f3 del nord", "stop_coordinates": {"lon": 2.015487, "lat": 41.5701675}, "wheelchair_boarding": 0},{"stop_id": "NA", "stop_name": "Terrassa Nacions Unides", "stop_coordinates": {"lon": 2.0134592, "lat": 41.5801339}, "wheelchair_boarding": 0},{"stop_id": "PE", "stop_name": "Pl. Espanya", "stop_coordinates": {"lon": 2.148458333, "lat": 41.3747199}, "wheelchair_boarding": 0},{"stop_id": "CO", "stop_name": "Cornell\u00e0 Riera", "stop_coordinates": {"lon": 2.071263627, "lat": 41.35147828}, "wheelchair_boarding": 1},{"stop_id": "MC", "stop_name": "Martorell Central", "stop_coordinates": {"lon": 1.925294975, "lat": 41.4792845}, "wheelchair_boarding": 0},{"stop_id": "SA", "stop_name": "Sant Andreu de la Barca", "stop_coordinates": {"lon": 1.973673502, "lat": 41.44648001}, "wheelchair_boarding": 0},{"stop_id": "CP", "stop_name": "Can Parellada", "stop_coordinates": {"lon": 1.830813063, "lat": 41.50222357}, "wheelchair_boarding": 0},{"stop_id": "MQ", "stop_name": "Masquefa", "stop_coordinates": {"lon": 1.812625072, "lat": 41.502884}, "wheelchair_boarding": 0},{"stop_id": "AT", "stop_name": "Alcoletge", "stop_coordinates": {"lon": 0.686458, "lat": 41.654738}, "wheelchair_boarding": 0},{"stop_id": "MV", "stop_name": "Martorell Vila", "stop_coordinates": {"lon": 1.938956855, "lat": 41.4758714}, "wheelchair_boarding": 0},{"stop_id": "MB", "stop_name": "Manresa-Baixador", "stop_coordinates": {"lon": 1.827904, "lat": 41.731457}, "wheelchair_boarding": 0},{"stop_id": "PI", "stop_name": "Piera", "stop_coordinates": {"lon": 1.75450443, "lat": 41.52591339}, "wheelchair_boarding": 0},{"stop_id": "GB", "stop_name": "Gerb", "stop_coordinates": {"lon": 0.812079, "lat": 41.823301}, "wheelchair_boarding": 0},{"stop_id": "SM", "stop_name": "St. Lloren\u00e7 de Montgai", "stop_coordinates": {"lon": 0.832571, "lat": 41.866379}, "wheelchair_boarding": 0},{"stop_id": "SN", "stop_name": "Santa Linya", "stop_coordinates": {"lon": 0.852312, "lat": 41.93156}, "wheelchair_boarding": 0},{"stop_id": "LL", "stop_name": "Cellers-Llimiana", "stop_coordinates": {"lon": 0.882707, "lat": 42.058631}, "wheelchair_boarding": 0},{"stop_id": "SD", "stop_name": "Sal\u00e0s de Pallars", "stop_coordinates": {"lon": 0.940463, "lat": 42.206835}, "wheelchair_boarding": 0},{"stop_id": "PS", "stop_name": "La Pobla de Segur", "stop_coordinates": {"lon": 0.965917, "lat": 42.239877}, "wheelchair_boarding": 0},{"stop_id": "PJ", "stop_name": "Sabadell Pla\u00e7a Major", "stop_coordinates": {"lon": 2.1088815, "lat": 41.5474198}, "wheelchair_boarding": 0},{"stop_id": "CT", "stop_name": "La Creu Alta", "stop_coordinates": {"lon": 2.100385, "lat": 41.554954}, "wheelchair_boarding": 1},{"stop_id": "RV", "stop_name": "Ribes-Vila", "stop_coordinates": {"lon": 2.1721241533237, "lat": 42.308798764827}, "wheelchair_boarding": 0},{"stop_id": "PG", "stop_name": "Pol\u00edgon industrial del Segre", "stop_coordinates": {"lon": 0.652806, "lat": 41.622808}, "wheelchair_boarding": 0},{"stop_id": "PC", "stop_name": "Pl. Catalunya", "stop_coordinates": {"lon": 2.168720219, "lat": 41.38563194}, "wheelchair_boarding": 1},{"stop_id": "MN", "stop_name": "Muntaner", "stop_coordinates": {"lon": 2.142346041, "lat": 41.39852644}, "wheelchair_boarding": 0},{"stop_id": "PD", "stop_name": "P\u00e0dua", "stop_coordinates": {"lon": 2.142759094, "lat": 41.40351065}, "wheelchair_boarding": 0},{"stop_id": "EP", "stop_name": "El Putxet", "stop_coordinates": {"lon": 2.139151477, "lat": 41.40582569}, "wheelchair_boarding": 0},{"stop_id": "TB", "stop_name": "Av. Tibidabo", "stop_coordinates": {"lon": 2.137162791, "lat": 41.40964799}, "wheelchair_boarding": 0},{"stop_id": "VS", "stop_name": "Vallvidrera Superior", "stop_coordinates": {"lon": 2.1058163381683, "lat": 41.414111713828}, "wheelchair_boarding": 0},{"stop_id": "LP", "stop_name": "Les Planes", "stop_coordinates": {"lon": 2.0916176, "lat": 41.42740264}, "wheelchair_boarding": 0},{"stop_id": "FN", "stop_name": "Les Fonts", "stop_coordinates": {"lon": 2.033582202, "lat": 41.52846982}, "wheelchair_boarding": 0},{"stop_id": "SJ", "stop_name": "Sant Joan", "stop_coordinates": {"lon": 2.076498641, "lat": 41.49015388}, "wheelchair_boarding": 0},{"stop_id": "VP", "stop_name": "Vallparad\u00eds Universitat", "stop_coordinates": {"lon": 2.0190489, "lat": 41.5633063}, "wheelchair_boarding": 0},{"stop_id": "MG", "stop_name": "Mag\u00f2ria La Campana", "stop_coordinates": {"lon": 2.138879447, "lat": 41.36748768}, "wheelchair_boarding": 0},{"stop_id": "IC", "stop_name": "Ildefons Cerd\u00e0", "stop_coordinates": {"lon": 2.130023266, "lat": 41.36090867}, "wheelchair_boarding": 0},{"stop_id": "SP", "stop_name": "Sant Josep", "stop_coordinates": {"lon": 2.10991665, "lat": 41.36070098}, "wheelchair_boarding": 0},{"stop_id": "LH", "stop_name": "L'Hospitalet Av. Carrilet", "stop_coordinates": {"lon": 2.102709519, "lat": 41.35793378}, "wheelchair_boarding": 0},{"stop_id": "BO", "stop_name": "Sant Boi", "stop_coordinates": {"lon": 2.042855988, "lat": 41.34856143}, "wheelchair_boarding": 0},{"stop_id": "EU", "stop_name": "Europa | Fira", "stop_coordinates": {"lon": 2.124199344, "lat": 41.35655892}, "wheelchair_boarding": 0},{"stop_id": "VH", "stop_name": "Sant Vicen\u00e7 dels Horts", "stop_coordinates": {"lon": 2.012398952, "lat": 41.38810839}, "wheelchair_boarding": 0},{"stop_id": "QC", "stop_name": "Quatre Camins", "stop_coordinates": {"lon": 2.001715183, "lat": 41.40629238}, "wheelchair_boarding": 0},{"stop_id": "PA", "stop_name": "Pallej\u00e0", "stop_coordinates": {"lon": 1.995677605, "lat": 41.42078685}, "wheelchair_boarding": 0},{"stop_id": "ME", "stop_name": "Martorell Enlla\u00e7", "stop_coordinates": {"lon": 1.918677519, "lat": 41.48396936}, "wheelchair_boarding": 0},{"stop_id": "OL", "stop_name": "Olesa de Montserrat", "stop_coordinates": {"lon": 1.888618922, "lat": 41.54105908}, "wheelchair_boarding": 0},{"stop_id": "CB", "stop_name": "Castellbell i El Vilar", "stop_coordinates": {"lon": 1.854793522, "lat": 41.64051706}, "wheelchair_boarding": 0},{"stop_id": "SV", "stop_name": "Sant Vicen\u00e7-Castellgal\u00ed", "stop_coordinates": {"lon": 1.8596058, "lat": 41.66791016}, "wheelchair_boarding": 0},{"stop_id": "VI", "stop_name": "Manresa Viladordis", "stop_coordinates": {"lon": 1.83398595, "lat": 41.72436991}, "wheelchair_boarding": 0},{"stop_id": "BE", "stop_name": "La Beguda", "stop_coordinates": {"lon": 1.838788972, "lat": 41.5017639}, "wheelchair_boarding": 0},{"stop_id": "VA", "stop_name": "Vallbona d'Anoia", "stop_coordinates": {"lon": 1.709010719, "lat": 41.52025979}, "wheelchair_boarding": 0},{"stop_id": "CA", "stop_name": "Capellades", "stop_coordinates": {"lon": 1.695130725, "lat": 41.52153533}, "wheelchair_boarding": 0},{"stop_id": "PO", "stop_name": "La Pobla de Claramunt", "stop_coordinates": {"lon": 1.677906247, "lat": 41.55461094}, "wheelchair_boarding": 0},{"stop_id": "IG", "stop_name": "Igualada", "stop_coordinates": {"lon": 1.629951133, "lat": 41.57802651}, "wheelchair_boarding": 0},{"stop_id": "MP", "stop_name": "Monistrol-Vila", "stop_coordinates": {"lon": 1.843723316, "lat": 41.61562791}, "wheelchair_boarding": 0},{"stop_id": "AR", "stop_name": "\u00c0ger", "stop_coordinates": {"lon": 0.851596, "lat": 42.006741}, "wheelchair_boarding": 0},{"stop_id": "GT", "stop_name": "Guardia de Tremp", "stop_coordinates": {"lon": 0.88809, "lat": 42.101399}, "wheelchair_boarding": 0},{"stop_id": "PT", "stop_name": "Palau de Noguera", "stop_coordinates": {"lon": 0.892435, "lat": 42.147002}, "wheelchair_boarding": 0},{"stop_id": "TP", "stop_name": "Tremp", "stop_coordinates": {"lon": 0.891057, "lat": 42.167348}, "wheelchair_boarding": 0},{"stop_id": "VR", "stop_name": "Vallvidrera Inferior", "stop_coordinates": {"lon": 2.111263, "lat": 41.409328}, "wheelchair_boarding": 0},{"stop_id": "QUE", "stop_name": "Queralbs", "stop_coordinates": {"lon": 2.1663511165341, "lat": 42.351513859462}, "wheelchair_boarding": 0},{"stop_id": "PR", "stop_name": "Proven\u00e7a", "stop_coordinates": {"lon": 2.158030869, "lat": 41.39281434}, "wheelchair_boarding": 0},{"stop_id": "GR", "stop_name": "Gr\u00e0cia", "stop_coordinates": {"lon": 2.152662325, "lat": 41.39909823}, "wheelchair_boarding": 0},{"stop_id": "SG", "stop_name": "Sant Gervasi", "stop_coordinates": {"lon": 2.147133783, "lat": 41.40106608}, "wheelchair_boarding": 0},{"stop_id": "SR", "stop_name": "Sarri\u00e0", "stop_coordinates": {"lon": 2.125574875, "lat": 41.39849938}, "wheelchair_boarding": 0},{"stop_id": "RE", "stop_name": "Reina Elisenda", "stop_coordinates": {"lon": 2.118932325, "lat": 41.39874599}, "wheelchair_boarding": 0},{"stop_id": "PF", "stop_name": "Peu del Funicular", "stop_coordinates": {"lon": 2.111181541, "lat": 41.40921616}, "wheelchair_boarding": 0},{"stop_id": "VL", "stop_name": "Baixador de Vallvidrera", "stop_coordinates": {"lon": 2.096936777, "lat": 41.42009441}, "wheelchair_boarding": 0},{"stop_id": "LF", "stop_name": "La Floresta", "stop_coordinates": {"lon": 2.073166144, "lat": 41.44487408}, "wheelchair_boarding": 0},{"stop_id": "MS", "stop_name": "Mira-Sol", "stop_coordinates": {"lon": 2.061380927, "lat": 41.46936873}, "wheelchair_boarding": 0},{"stop_id": "HG", "stop_name": "Hospital General", "stop_coordinates": {"lon": 2.046514894, "lat": 41.47620923}, "wheelchair_boarding": 0},{"stop_id": "TR", "stop_name": "Terrassa - Rambla", "stop_coordinates": {"lon": 2.007525272, "lat": 41.55974631}, "wheelchair_boarding": 0},{"stop_id": "VO", "stop_name": "Volpelleres", "stop_coordinates": {"lon": 2.072928, "lat": 41.481248}, "wheelchair_boarding": 0},{"stop_id": "BT", "stop_name": "Bellaterra", "stop_coordinates": {"lon": 2.090556583, "lat": 41.50085844}, "wheelchair_boarding": 0},{"stop_id": "UN", "stop_name": "Universitat Aut\u00f2noma", "stop_coordinates": {"lon": 2.102510441, "lat": 41.50285282}, "wheelchair_boarding": 0},{"stop_id": "GO", "stop_name": "Gornal", "stop_coordinates": {"lon": 2.117431558, "lat": 41.35488589}, "wheelchair_boarding": 0},{"stop_id": "AL", "stop_name": "Almeda", "stop_coordinates": {"lon": 2.085251402, "lat": 41.35306747}, "wheelchair_boarding": 0},{"stop_id": "CG", "stop_name": "Col\u00f2nia G\u00fcell", "stop_coordinates": {"lon": 2.031859416, "lat": 41.36386336}, "wheelchair_boarding": 0},{"stop_id": "ML", "stop_name": "Mol\u00ed Nou - Ciutat Cooperativa", "stop_coordinates": {"lon": 2.035276936, "lat": 41.35751473}, "wheelchair_boarding": 0},{"stop_id": "CL", "stop_name": "Santa Coloma de Cervell\u00f3", "stop_coordinates": {"lon": 2.023520241, "lat": 41.37064766}, "wheelchair_boarding": 0},{"stop_id": "CR", "stop_name": "Can Ros", "stop_coordinates": {"lon": 2.005346458, "lat": 41.39882061}, "wheelchair_boarding": 0},{"stop_id": "PL", "stop_name": "El Palau", "stop_coordinates": {"lon": 1.9622947, "lat": 41.45588074}, "wheelchair_boarding": 0},{"stop_id": "AB", "stop_name": "Abrera", "stop_coordinates": {"lon": 1.906805399, "lat": 41.52256137}, "wheelchair_boarding": 0},{"stop_id": "AE", "stop_name": "Montserrat-Aeri", "stop_coordinates": {"lon": 1.853361605, "lat": 41.59119812}, "wheelchair_boarding": 0},{"stop_id": "MO", "stop_name": "Monistrol de Montserrat", "stop_coordinates": {"lon": 1.84919403, "lat": 41.6103596}, "wheelchair_boarding": 0},{"stop_id": "MA", "stop_name": "Manresa-Alta", "stop_coordinates": {"lon": 1.832986, "lat": 41.73224}, "wheelchair_boarding": 0},{"stop_id": "SE", "stop_name": "Sant Esteve Sesrovires", "stop_coordinates": {"lon": 1.8724438, "lat": 41.49767605}, "wheelchair_boarding": 0},{"stop_id": "VN", "stop_name": "Vilanova del Cam\u00ed", "stop_coordinates": {"lon": 1.642009216, "lat": 41.57331472}, "wheelchair_boarding": 0},{"stop_id": "MM", "stop_name": "Montserrat", "stop_coordinates": {"lon": 1.836497527, "lat": 41.59225373}, "wheelchair_boarding": 0},{"stop_id": "LE", "stop_name": "Lleida", "stop_coordinates": {"lon": 0.633672, "lat": 41.620098}, "wheelchair_boarding": 0},{"stop_id": "VB", "stop_name": "Vilanova de la Barca", "stop_coordinates": {"lon": 0.727903, "lat": 41.687347}, "wheelchair_boarding": 0},{"stop_id": "RM", "stop_name": "T\u00e9rmens", "stop_coordinates": {"lon": 0.764899, "lat": 41.717644}, "wheelchair_boarding": 0},{"stop_id": "VF", "stop_name": "Vallfogona de Balaguer", "stop_coordinates": {"lon": 0.805247, "lat": 41.755094}, "wheelchair_boarding": 0},{"stop_id": "BG", "stop_name": "Balaguer", "stop_coordinates": {"lon": 0.814761, "lat": 41.789215}, "wheelchair_boarding": 0},{"stop_id": "LS", "stop_name": "Vilanova de la Sal", "stop_coordinates": {"lon": 0.830401, "lat": 41.91207}, "wheelchair_boarding": 0},{"stop_id": "CF", "stop_name": "Can Feu - Gr\u00e0cia", "stop_coordinates": {"lon": 2.100463866, "lat": 41.542522966}, "wheelchair_boarding": 0},{"stop_id": "NO", "stop_name": "Sabadell Nord", "stop_coordinates": {"lon": 2.096657, "lat": 41.561225}, "wheelchair_boarding": 1},{"stop_id": "PN", "stop_name": "Sabadell Parc del Nord", "stop_coordinates": {"lon": 2.089499, "lat": 41.571291}, "wheelchair_boarding": 1},{"stop_id": "NU", "stop_name": "Nuria", "stop_coordinates": {"lon": 2.1547279163581, "lat": 42.397328515116}, "wheelchair_boarding": 0},{"stop_id": "RR", "stop_name": "Ribes-Enlla\u00e7", "stop_coordinates": {"lon": 2.1663747137233, "lat": 42.30040204821}, "wheelchair_boarding": 0}]